{
  "type":"FeatureCollection",
  "crs": {
    "type":"name",
    "properties": {
      "name": "urn:ogc:def:crs:OGC:1.3:CRS84"
    }
  }
  ,
  "features":[ {
    "type":"Feature",
    "properties": {
      "OBJECTID": 1, "Name": "Caledonia Tourism Booth", "Type": "Information", "Website": null, "created_us": null, "created_da": null, "last_edite": "MDAVIS", "last_edi_1": "2016/04/13", "PhoneNum": null
    }
    ,
    "geometry": {
      "type": "Point", "coordinates": [-79.95717443528784, 43.07442158958619]
    }
  }
  ,
  {
    "type":"Feature",
    "properties": {
      "OBJECTID": 2, "Name": "Grand Trunk Train Staiton Information Centre", "Type": "Information", "Website": null, "created_us": null, "created_da": null, "last_edite": "MDAVIS", "last_edi_1": "2016/04/13", "PhoneNum": null
    }
    ,
    "geometry": {
      "type": "Point", "coordinates": [-79.95134501311065, 43.07809556389342]
    }
  }
  ,
  {
    "type":"Feature",
    "properties": {
      "OBJECTID": 3, "Name": "Cayuga Tourist Information Centre", "Type": "Information", "Website": null, "created_us": null, "created_da": null, "last_edite": "MDAVIS", "last_edi_1": "2016/04/13", "PhoneNum": null
    }
    ,
    "geometry": {
      "type": "Point", "coordinates": [-79.85581190072413, 42.95006269199481]
    }
  }
  ,
  {
    "type":"Feature",
    "properties": {
      "OBJECTID": 4, "Name": "Wilson MacDonald Memorial School Museum", "Type": "Information", "Website": null, "created_us": null, "created_da": null, "last_edite": "MDAVIS", "last_edi_1": "2016/04/13", "PhoneNum": null
    }
    ,
    "geometry": {
      "type": "Point", "coordinates": [-79.97544672686992, 42.8271835007135]
    }
  }
  ,
  {
    "type":"Feature",
    "properties": {
      "OBJECTID": 2941, "Name": "Dunnville Municipal Office", "Type": "Information", "Website": null, "created_us": "MDAVIS", "created_da": "2016/04/13", "last_edite": "MDAVIS", "last_edi_1": "2016/04/13", "PhoneNum": null
    }
    ,
    "geometry": {
      "type": "Point", "coordinates": [-79.61826910914588, 42.90410845434989]
    }
  }
  ,
  {
    "type":"Feature",
    "properties": {
      "OBJECTID": 2942, "Name": "Cayuga Municipal Office", "Type": "Information", "Website": null, "created_us": "MDAVIS", "created_da": "2016/04/13", "last_edite": "MDAVIS", "last_edi_1": "2016/04/13", "PhoneNum": null
    }
    ,
    "geometry": {
      "type": "Point", "coordinates": [-79.857967453392, 42.95418072240213]
    }
  }
  ,
  {
    "type":"Feature",
    "properties": {
      "OBJECTID": 2943, "Name": "Hagersville Municipal Office", "Type": "Information", "Website": null, "created_us": "MDAVIS", "created_da": "2016/04/13", "last_edite": "MDAVIS", "last_edi_1": "2016/04/13", "PhoneNum": null
    }
    ,
    "geometry": {
      "type": "Point", "coordinates": [-80.05165142189703, 42.9617509715335]
    }
  }
  ,
  {
    "type":"Feature",
    "properties": {
      "OBJECTID": 2944, "Name": "Caledonia Municipal Office", "Type": "Information", "Website": null, "created_us": "MDAVIS", "created_da": "2016/04/13", "last_edite": "MDAVIS", "last_edi_1": "2016/04/13", "PhoneNum": null
    }
    ,
    "geometry": {
      "type": "Point", "coordinates": [-79.95847383323697, 43.06442025621035]
    }
  }
  ]
}
