{
  "type":"FeatureCollection",
  "crs": {
    "type":"name",
    "properties": {
      "name": "urn:ogc:def:crs:OGC:1.3:CRS84"
    }
  }
  ,
  "features":[ {
    "type":"Feature",
    "properties": {
      "OBJECTID": 5, "Name": "Wilson MacDonald Memorial School Museum", "Type": "Public Washroom", "Website": null, "created_us": null, "created_da": null, "last_edite": null, "last_edi_1": null, "PhoneNum": null
    }
    ,
    "geometry": {
      "type": "Point", "coordinates": [-79.97537201147597, 42.82719951060934]
    }
  }
  ,
  {
    "type":"Feature",
    "properties": {
      "OBJECTID": 2856, "Name": "Caledonia Kinsmen Park", "Type": "Public Washroom", "Website": null, "created_us": "MDAVIS", "created_da": "2016/04/13", "last_edite": "MDAVIS", "last_edi_1": "2016/04/13", "PhoneNum": null
    }
    ,
    "geometry": {
      "type": "Point", "coordinates": [-79.95722637568136, 43.07411472891829]
    }
  }
  ,
  {
    "type":"Feature",
    "properties": {
      "OBJECTID": 2857, "Name": "Cayuga Kinsmen Ball Park", "Type": "Public Washroom", "Website": null, "created_us": "MDAVIS", "created_da": "2016/04/13", "last_edite": "MDAVIS", "last_edi_1": "2016/04/13", "PhoneNum": null
    }
    ,
    "geometry": {
      "type": "Point", "coordinates": [-79.85794044216937, 42.943376546138175]
    }
  }
  ,
  {
    "type":"Feature",
    "properties": {
      "OBJECTID": 2858, "Name": "Cayuga Kinsmen Ball Park", "Type": "Public Washroom", "Website": null, "created_us": "MDAVIS", "created_da": "2016/04/13", "last_edite": "MDAVIS", "last_edi_1": "2016/04/13", "PhoneNum": null
    }
    ,
    "geometry": {
      "type": "Point", "coordinates": [-79.8561659735468, 42.94853100127354]
    }
  }
  ,
  {
    "type":"Feature",
    "properties": {
      "OBJECTID": 2859, "Name": "Central Park", "Type": "Public Washroom", "Website": null, "created_us": "MDAVIS", "created_da": "2016/04/13", "last_edite": "MDAVIS", "last_edi_1": "2016/04/13", "PhoneNum": null
    }
    ,
    "geometry": {
      "type": "Point", "coordinates": [-79.61956379588159, 42.90389835628128]
    }
  }
  ,
  {
    "type":"Feature",
    "properties": {
      "OBJECTID": 2860, "Name": "Dunnville Kinsmen Park", "Type": "Public Washroom", "Website": null, "created_us": "MDAVIS", "created_da": "2016/04/13", "last_edite": "MDAVIS", "last_edi_1": "2016/04/13", "PhoneNum": null
    }
    ,
    "geometry": {
      "type": "Point", "coordinates": [-79.61721175604056, 42.914225384970834]
    }
  }
  ,
  {
    "type":"Feature",
    "properties": {
      "OBJECTID": 2861, "Name": "Dunnville Lions Park", "Type": "Public Washroom", "Website": null, "created_us": "MDAVIS", "created_da": "2016/04/13", "last_edite": "MDAVIS", "last_edi_1": "2016/04/13", "PhoneNum": null
    }
    ,
    "geometry": {
      "type": "Point", "coordinates": [-79.63156068884193, 42.90665591615756]
    }
  }
  ,
  {
    "type":"Feature",
    "properties": {
      "OBJECTID": 2862, "Name": "Dunnville Soccer Complex", "Type": "Public Washroom", "Website": null, "created_us": "MDAVIS", "created_da": "2016/04/13", "last_edite": "MDAVIS", "last_edi_1": "2016/04/13", "PhoneNum": null
    }
    ,
    "geometry": {
      "type": "Point", "coordinates": [-79.59746307889046, 42.912935516401745]
    }
  }
  ,
  {
    "type":"Feature",
    "properties": {
      "OBJECTID": 2863, "Name": "Esplanade park", "Type": "Public Washroom", "Website": null, "created_us": "MDAVIS", "created_da": "2016/04/13", "last_edite": "MDAVIS", "last_edi_1": "2016/04/13", "PhoneNum": null
    }
    ,
    "geometry": {
      "type": "Point", "coordinates": [-79.5790908862481, 42.85695107201791]
    }
  }
  ,
  {
    "type":"Feature",
    "properties": {
      "OBJECTID": 2864, "Name": "Fisherville Park", "Type": "Public Washroom", "Website": null, "created_us": "MDAVIS", "created_da": "2016/04/13", "last_edite": "MDAVIS", "last_edi_1": "2016/04/13", "PhoneNum": null
    }
    ,
    "geometry": {
      "type": "Point", "coordinates": [-79.90655987142206, 42.88256186020076]
    }
  }
  ,
  {
    "type":"Feature",
    "properties": {
      "OBJECTID": 2865, "Name": "Forest Park", "Type": "Public Washroom", "Website": null, "created_us": "MDAVIS", "created_da": "2016/04/13", "last_edite": "MDAVIS", "last_edi_1": "2016/04/13", "PhoneNum": null
    }
    ,
    "geometry": {
      "type": "Point", "coordinates": [-80.1390285463174, 42.89615196701163]
    }
  }
  ,
  {
    "type":"Feature",
    "properties": {
      "OBJECTID": 2866, "Name": "Grant Kett Park", "Type": "Public Washroom", "Website": null, "created_us": "MDAVIS", "created_da": "2016/04/13", "last_edite": "MDAVIS", "last_edi_1": "2016/04/13", "PhoneNum": null
    }
    ,
    "geometry": {
      "type": "Point", "coordinates": [-80.04595306423622, 42.96436871054836]
    }
  }
  ,
  {
    "type":"Feature",
    "properties": {
      "OBJECTID": 2867, "Name": "Jarvis Lions Park", "Type": "Public Washroom", "Website": null, "created_us": "MDAVIS", "created_da": "2016/04/13", "last_edite": "MDAVIS", "last_edi_1": "2016/04/13", "PhoneNum": null
    }
    ,
    "geometry": {
      "type": "Point", "coordinates": [-80.11380171115255, 42.882065740169175]
    }
  }
  ,
  {
    "type":"Feature",
    "properties": {
      "OBJECTID": 2868, "Name": "McClung Soccer Park", "Type": "Public Washroom", "Website": null, "created_us": "MDAVIS", "created_da": "2016/04/13", "last_edite": "MDAVIS", "last_edi_1": "2016/04/13", "PhoneNum": null
    }
    ,
    "geometry": {
      "type": "Point", "coordinates": [-79.917540102663, 43.07056151552656]
    }
  }
  ,
  {
    "type":"Feature",
    "properties": {
      "OBJECTID": 2869, "Name": "McKinnon Park", "Type": "Public Washroom", "Website": null, "created_us": "MDAVIS", "created_da": "2016/04/13", "last_edite": "MDAVIS", "last_edi_1": "2016/04/13", "PhoneNum": null
    }
    ,
    "geometry": {
      "type": "Point", "coordinates": [-79.95644979133026, 43.06425777742182]
    }
  }
  ,
  {
    "type":"Feature",
    "properties": {
      "OBJECTID": 2870, "Name": "Nanticoke Athletic Field", "Type": "Public Washroom", "Website": null, "created_us": "MDAVIS", "created_da": "2016/04/13", "last_edite": "MDAVIS", "last_edi_1": "2016/04/13", "PhoneNum": null
    }
    ,
    "geometry": {
      "type": "Point", "coordinates": [-80.07918574769057, 42.809110014412454]
    }
  }
  ,
  {
    "type":"Feature",
    "properties": {
      "OBJECTID": 2871, "Name": "Oneida Ball Park", "Type": "Public Washroom", "Website": null, "created_us": "MDAVIS", "created_da": "2016/04/13", "last_edite": "MDAVIS", "last_edi_1": "2016/04/13", "PhoneNum": null
    }
    ,
    "geometry": {
      "type": "Point", "coordinates": [-80.01362015769972, 43.00844770963243]
    }
  }
  ,
  {
    "type":"Feature",
    "properties": {
      "OBJECTID": 2872, "Name": "Selkirk Athletic Field", "Type": "Public Washroom", "Website": null, "created_us": "MDAVIS", "created_da": "2016/04/13", "last_edite": "MDAVIS", "last_edi_1": "2016/04/13", "PhoneNum": null
    }
    ,
    "geometry": {
      "type": "Point", "coordinates": [-79.93357527141218, 42.83218042038036]
    }
  }
  ,
  {
    "type":"Feature",
    "properties": {
      "OBJECTID": 2873, "Name": "Wingfield Park", "Type": "Public Washroom", "Website": null, "created_us": "MDAVIS", "created_da": "2016/04/13", "last_edite": "MDAVIS", "last_edi_1": "2016/04/13", "PhoneNum": null
    }
    ,
    "geometry": {
      "type": "Point", "coordinates": [-79.62370548148358, 42.90266877864569]
    }
  }
  ,
  {
    "type":"Feature",
    "properties": {
      "OBJECTID": 2874, "Name": "York Park", "Type": "Public Washroom", "Website": null, "created_us": "MDAVIS", "created_da": "2016/04/13", "last_edite": "MDAVIS", "last_edi_1": "2016/04/13", "PhoneNum": null
    }
    ,
    "geometry": {
      "type": "Point", "coordinates": [-79.89083444870654, 43.02062337688023]
    }
  }
  ,
  {
    "type":"Feature",
    "properties": {
      "OBJECTID": 2875, "Name": "Caledonia Lions Pool", "Type": "Public Washroom", "Website": null, "created_us": "MDAVIS", "created_da": "2016/04/13", "last_edite": "MDAVIS", "last_edi_1": "2016/04/13", "PhoneNum": null
    }
    ,
    "geometry": {
      "type": "Point", "coordinates": [-79.95419472349032, 43.07342886752121]
    }
  }
  ]
}
